StkAutomation/Python/Problem_Specific/ConstellationWizard/Files/Misc/deckAccessRpt.txt

                                                         22 Jun 2020 01:21:05
Place-MidPoint


 Name       Start Time (UTCG)           Stop Time (UTCG)       Duration (sec)
-----    -----------------------    -----------------------    --------------
00621    3 Dec 2019 00:09:22.326    3 Dec 2019 00:10:00.000            37.674
00622    3 Dec 2019 00:06:53.732    3 Dec 2019 00:10:00.000           186.268
00623    3 Dec 2019 00:04:26.331    3 Dec 2019 00:10:00.000           333.669
00624    3 Dec 2019 00:01:59.909    3 Dec 2019 00:10:00.000           480.091
00625    3 Dec 2019 00:00:00.000    3 Dec 2019 00:09:13.592           553.592
00626    3 Dec 2019 00:00:00.000    3 Dec 2019 00:07:12.938           432.938
00627    3 Dec 2019 00:00:00.000    3 Dec 2019 00:05:11.570           311.570
00628    3 Dec 2019 00:00:00.000    3 Dec 2019 00:03:09.578           189.578
00629    3 Dec 2019 00:00:00.000    3 Dec 2019 00:01:07.008            67.008
00669    3 Dec 2019 00:09:38.284    3 Dec 2019 00:10:00.000            21.716
00670    3 Dec 2019 00:07:18.577    3 Dec 2019 00:10:00.000           161.423
00671    3 Dec 2019 00:04:59.050    3 Dec 2019 00:10:00.000           300.950
00672    3 Dec 2019 00:02:39.698    3 Dec 2019 00:10:00.000           440.302
00673    3 Dec 2019 00:00:20.507    3 Dec 2019 00:10:00.000           579.493
00674    3 Dec 2019 00:00:00.000    3 Dec 2019 00:10:00.000           600.000
00675    3 Dec 2019 00:00:00.000    3 Dec 2019 00:10:00.000           600.000
00676    3 Dec 2019 00:00:00.000    3 Dec 2019 00:08:45.927           525.927
00677    3 Dec 2019 00:00:00.000    3 Dec 2019 00:06:37.522           397.522
00678    3 Dec 2019 00:00:00.000    3 Dec 2019 00:04:28.920           268.920
00679    3 Dec 2019 00:00:00.000    3 Dec 2019 00:02:20.138           140.138
00680    3 Dec 2019 00:00:00.000    3 Dec 2019 00:00:11.175            11.175
00718    3 Dec 2019 00:09:02.427    3 Dec 2019 00:10:00.000            57.573
00719    3 Dec 2019 00:06:44.994    3 Dec 2019 00:10:00.000           195.006
00720    3 Dec 2019 00:04:27.624    3 Dec 2019 00:10:00.000           332.376
00721    3 Dec 2019 00:02:10.329    3 Dec 2019 00:10:00.000           469.671
00722    3 Dec 2019 00:00:00.000    3 Dec 2019 00:10:00.000           600.000
00723    3 Dec 2019 00:00:00.000    3 Dec 2019 00:10:00.000           600.000
00724    3 Dec 2019 00:00:00.000    3 Dec 2019 00:10:00.000           600.000
00725    3 Dec 2019 00:00:00.000    3 Dec 2019 00:10:00.000           600.000
00726    3 Dec 2019 00:00:00.000    3 Dec 2019 00:08:44.986           524.986
00727    3 Dec 2019 00:00:00.000    3 Dec 2019 00:06:33.559           393.559
00728    3 Dec 2019 00:00:00.000    3 Dec 2019 00:04:22.015           262.015
00729    3 Dec 2019 00:00:00.000    3 Dec 2019 00:02:10.352           130.352
00767    3 Dec 2019 00:08:54.893    3 Dec 2019 00:10:00.000            65.107
00768    3 Dec 2019 00:06:38.396    3 Dec 2019 00:10:00.000           201.604
00769    3 Dec 2019 00:04:21.917    3 Dec 2019 00:10:00.000           338.083
00770    3 Dec 2019 00:02:05.475    3 Dec 2019 00:10:00.000           474.525
00771    3 Dec 2019 00:00:00.000    3 Dec 2019 00:10:00.000           600.000
00772    3 Dec 2019 00:00:00.000    3 Dec 2019 00:10:00.000           600.000
00773    3 Dec 2019 00:00:00.000    3 Dec 2019 00:10:00.000           600.000
00774    3 Dec 2019 00:00:00.000    3 Dec 2019 00:10:00.000           600.000
00775    3 Dec 2019 00:00:00.000    3 Dec 2019 00:10:00.000           600.000
00776    3 Dec 2019 00:00:00.000    3 Dec 2019 00:07:53.059           473.059
00777    3 Dec 2019 00:00:00.000    3 Dec 2019 00:05:39.607           339.607
00778    3 Dec 2019 00:00:00.000    3 Dec 2019 00:03:26.076           206.076
00779    3 Dec 2019 00:00:00.000    3 Dec 2019 00:01:12.463            72.463
00816    3 Dec 2019 00:09:00.813    3 Dec 2019 00:10:00.000            59.187
00817    3 Dec 2019 00:06:44.666    3 Dec 2019 00:10:00.000           195.334
00818    3 Dec 2019 00:04:28.520    3 Dec 2019 00:10:00.000           331.480
00819    3 Dec 2019 00:02:12.387    3 Dec 2019 00:10:00.000           467.613
00820    3 Dec 2019 00:00:00.000    3 Dec 2019 00:10:00.000           600.000
00821    3 Dec 2019 00:00:00.000    3 Dec 2019 00:10:00.000           600.000
00822    3 Dec 2019 00:00:00.000    3 Dec 2019 00:10:00.000           600.000
00823    3 Dec 2019 00:00:00.000    3 Dec 2019 00:10:00.000           600.000
00824    3 Dec 2019 00:00:00.000    3 Dec 2019 00:10:00.000           600.000
00825    3 Dec 2019 00:00:00.000    3 Dec 2019 00:08:40.745           520.745
00826    3 Dec 2019 00:00:00.000    3 Dec 2019 00:06:25.870           385.870
00827    3 Dec 2019 00:00:00.000    3 Dec 2019 00:04:10.928           250.928
00828    3 Dec 2019 00:00:00.000    3 Dec 2019 00:01:55.922           115.922
00865    3 Dec 2019 00:09:09.146    3 Dec 2019 00:10:00.000            50.854
00866    3 Dec 2019 00:06:53.018    3 Dec 2019 00:10:00.000           186.982
00867    3 Dec 2019 00:04:36.876    3 Dec 2019 00:10:00.000           323.124
00868    3 Dec 2019 00:02:20.739    3 Dec 2019 00:10:00.000           459.261
00869    3 Dec 2019 00:00:04.582    3 Dec 2019 00:10:00.000           595.418
00870    3 Dec 2019 00:00:00.000    3 Dec 2019 00:10:00.000           600.000
00871    3 Dec 2019 00:00:00.000    3 Dec 2019 00:10:00.000           600.000
00872    3 Dec 2019 00:00:00.000    3 Dec 2019 00:10:00.000           600.000
00873    3 Dec 2019 00:00:00.000    3 Dec 2019 00:10:00.000           600.000
00874    3 Dec 2019 00:00:00.000    3 Dec 2019 00:09:02.798           542.798
00875    3 Dec 2019 00:00:00.000    3 Dec 2019 00:06:46.831           406.831
00876    3 Dec 2019 00:00:00.000    3 Dec 2019 00:04:30.813           270.813
00877    3 Dec 2019 00:00:00.000    3 Dec 2019 00:02:14.746           134.746
00914    3 Dec 2019 00:09:16.806    3 Dec 2019 00:10:00.000            43.194
00915    3 Dec 2019 00:07:00.482    3 Dec 2019 00:10:00.000           179.518
00916    3 Dec 2019 00:04:44.131    3 Dec 2019 00:10:00.000           315.869
00917    3 Dec 2019 00:02:27.776    3 Dec 2019 00:10:00.000           452.224
00918    3 Dec 2019 00:00:11.397    3 Dec 2019 00:10:00.000           588.603
00919    3 Dec 2019 00:00:00.000    3 Dec 2019 00:10:00.000           600.000
00920    3 Dec 2019 00:00:00.000    3 Dec 2019 00:10:00.000           600.000
00921    3 Dec 2019 00:00:00.000    3 Dec 2019 00:10:00.000           600.000
00922    3 Dec 2019 00:00:00.000    3 Dec 2019 00:10:00.000           600.000
00923    3 Dec 2019 00:00:00.000    3 Dec 2019 00:09:07.837           547.837
00924    3 Dec 2019 00:00:00.000    3 Dec 2019 00:06:51.124           411.124
00925    3 Dec 2019 00:00:00.000    3 Dec 2019 00:04:34.381           274.381
00926    3 Dec 2019 00:00:00.000    3 Dec 2019 00:02:17.605           137.605
00927    3 Dec 2019 00:00:00.000    3 Dec 2019 00:00:00.807             0.807
00963    3 Dec 2019 00:09:18.106    3 Dec 2019 00:10:00.000            41.894
00964    3 Dec 2019 00:07:01.457    3 Dec 2019 00:10:00.000           178.543
00965    3 Dec 2019 00:04:44.781    3 Dec 2019 00:10:00.000           315.219
00966    3 Dec 2019 00:02:28.100    3 Dec 2019 00:10:00.000           451.900
00967    3 Dec 2019 00:00:11.390    3 Dec 2019 00:10:00.000           588.610
00968    3 Dec 2019 00:00:00.000    3 Dec 2019 00:10:00.000           600.000
00969    3 Dec 2019 00:00:00.000    3 Dec 2019 00:10:00.000           600.000
00970    3 Dec 2019 00:00:00.000    3 Dec 2019 00:10:00.000           600.000
00971    3 Dec 2019 00:00:00.000    3 Dec 2019 00:10:00.000           600.000
00972    3 Dec 2019 00:00:00.000    3 Dec 2019 00:09:00.416           540.416
00973    3 Dec 2019 00:00:00.000    3 Dec 2019 00:06:43.314           403.314
00974    3 Dec 2019 00:00:00.000    3 Dec 2019 00:04:26.202           266.202
00975    3 Dec 2019 00:00:00.000    3 Dec 2019 00:02:09.074           129.074
01012    3 Dec 2019 00:09:14.147    3 Dec 2019 00:10:00.000            45.853
01013    3 Dec 2019 00:06:57.177    3 Dec 2019 00:10:00.000           182.823
01014    3 Dec 2019 00:04:40.183    3 Dec 2019 00:10:00.000           319.817
01015    3 Dec 2019 00:02:23.186    3 Dec 2019 00:10:00.000           456.814
01016    3 Dec 2019 00:00:06.168    3 Dec 2019 00:10:00.000           593.832
01017    3 Dec 2019 00:00:00.000    3 Dec 2019 00:10:00.000           600.000
01018    3 Dec 2019 00:00:00.000    3 Dec 2019 00:10:00.000           600.000
01019    3 Dec 2019 00:00:00.000    3 Dec 2019 00:10:00.000           600.000
01020    3 Dec 2019 00:00:00.000    3 Dec 2019 00:10:00.000           600.000
01021    3 Dec 2019 00:00:00.000    3 Dec 2019 00:08:50.006           530.006
01022    3 Dec 2019 00:00:00.000    3 Dec 2019 00:06:32.861           392.861
01023    3 Dec 2019 00:00:00.000    3 Dec 2019 00:04:15.721           255.721
01024    3 Dec 2019 00:00:00.000    3 Dec 2019 00:01:58.585           118.585
01061    3 Dec 2019 00:09:03.708    3 Dec 2019 00:10:00.000            56.292
01062    3 Dec 2019 00:06:46.554    3 Dec 2019 00:10:00.000           193.446
01063    3 Dec 2019 00:04:29.393    3 Dec 2019 00:10:00.000           330.607
01064    3 Dec 2019 00:02:12.235    3 Dec 2019 00:10:00.000           467.765
01065    3 Dec 2019 00:00:00.000    3 Dec 2019 00:10:00.000           600.000
01066    3 Dec 2019 00:00:00.000    3 Dec 2019 00:10:00.000           600.000
01067    3 Dec 2019 00:00:00.000    3 Dec 2019 00:10:00.000           600.000
01068    3 Dec 2019 00:00:00.000    3 Dec 2019 00:10:00.000           600.000
01069    3 Dec 2019 00:00:00.000    3 Dec 2019 00:10:00.000           600.000
01070    3 Dec 2019 00:00:00.000    3 Dec 2019 00:08:40.001           520.001
01071    3 Dec 2019 00:00:00.000    3 Dec 2019 00:06:23.067           383.067
01072    3 Dec 2019 00:00:00.000    3 Dec 2019 00:04:06.146           246.146
01073    3 Dec 2019 00:00:00.000    3 Dec 2019 00:01:49.239           109.239
01110    3 Dec 2019 00:08:53.431    3 Dec 2019 00:10:00.000            66.569
01111    3 Dec 2019 00:06:36.369    3 Dec 2019 00:10:00.000           203.631
01112    3 Dec 2019 00:04:19.314    3 Dec 2019 00:10:00.000           340.686
01113    3 Dec 2019 00:02:02.281    3 Dec 2019 00:10:00.000           477.719
01114    3 Dec 2019 00:00:00.000    3 Dec 2019 00:10:00.000           600.000
01115    3 Dec 2019 00:00:00.000    3 Dec 2019 00:10:00.000           600.000
01116    3 Dec 2019 00:00:00.000    3 Dec 2019 00:10:00.000           600.000
01117    3 Dec 2019 00:00:00.000    3 Dec 2019 00:10:00.000           600.000
01118    3 Dec 2019 00:00:00.000    3 Dec 2019 00:10:00.000           600.000
01119    3 Dec 2019 00:00:00.000    3 Dec 2019 00:08:36.745           516.745
01120    3 Dec 2019 00:00:00.000    3 Dec 2019 00:06:20.140           380.140
01121    3 Dec 2019 00:00:00.000    3 Dec 2019 00:04:03.548           243.548
01122    3 Dec 2019 00:00:00.000    3 Dec 2019 00:01:46.972           106.972
01159    3 Dec 2019 00:08:46.880    3 Dec 2019 00:10:00.000            73.120
01160    3 Dec 2019 00:06:30.257    3 Dec 2019 00:10:00.000           209.743
01161    3 Dec 2019 00:04:13.665    3 Dec 2019 00:10:00.000           346.335
01162    3 Dec 2019 00:01:57.110    3 Dec 2019 00:10:00.000           482.890
01163    3 Dec 2019 00:00:00.000    3 Dec 2019 00:10:00.000           600.000
01164    3 Dec 2019 00:00:00.000    3 Dec 2019 00:10:00.000           600.000
01165    3 Dec 2019 00:00:00.000    3 Dec 2019 00:10:00.000           600.000
01166    3 Dec 2019 00:00:00.000    3 Dec 2019 00:10:00.000           600.000
01167    3 Dec 2019 00:00:00.000    3 Dec 2019 00:10:00.000           600.000
01168    3 Dec 2019 00:00:00.000    3 Dec 2019 00:08:38.732           518.732
01169    3 Dec 2019 00:00:00.000    3 Dec 2019 00:06:22.435           382.435
01170    3 Dec 2019 00:00:00.000    3 Dec 2019 00:04:06.147           246.147
01171    3 Dec 2019 00:00:00.000    3 Dec 2019 00:01:49.874           109.874
01208    3 Dec 2019 00:08:53.539    3 Dec 2019 00:10:00.000            66.461
01209    3 Dec 2019 00:06:37.711    3 Dec 2019 00:10:00.000           202.289
01210    3 Dec 2019 00:04:21.928    3 Dec 2019 00:10:00.000           338.072
01211    3 Dec 2019 00:02:06.202    3 Dec 2019 00:10:00.000           473.798
01212    3 Dec 2019 00:00:00.000    3 Dec 2019 00:10:00.000           600.000
01213    3 Dec 2019 00:00:00.000    3 Dec 2019 00:10:00.000           600.000
01214    3 Dec 2019 00:00:00.000    3 Dec 2019 00:10:00.000           600.000
01215    3 Dec 2019 00:00:00.000    3 Dec 2019 00:10:00.000           600.000
01216    3 Dec 2019 00:00:00.000    3 Dec 2019 00:10:00.000           600.000
01217    3 Dec 2019 00:00:00.000    3 Dec 2019 00:08:46.809           526.809
01218    3 Dec 2019 00:00:00.000    3 Dec 2019 00:06:30.683           390.683
01219    3 Dec 2019 00:00:00.000    3 Dec 2019 00:04:14.555           254.555
01220    3 Dec 2019 00:00:00.000    3 Dec 2019 00:01:58.429           118.429
01257    3 Dec 2019 00:09:17.969    3 Dec 2019 00:10:00.000            42.031
01258    3 Dec 2019 00:07:03.283    3 Dec 2019 00:10:00.000           176.717
01259    3 Dec 2019 00:04:48.659    3 Dec 2019 00:10:00.000           311.341
01260    3 Dec 2019 00:02:34.111    3 Dec 2019 00:10:00.000           445.889
01261    3 Dec 2019 00:00:19.629    3 Dec 2019 00:10:00.000           580.371
01262    3 Dec 2019 00:00:00.000    3 Dec 2019 00:10:00.000           600.000
01263    3 Dec 2019 00:00:00.000    3 Dec 2019 00:10:00.000           600.000
01264    3 Dec 2019 00:00:00.000    3 Dec 2019 00:10:00.000           600.000
01265    3 Dec 2019 00:00:00.000    3 Dec 2019 00:10:00.000           600.000
01266    3 Dec 2019 00:00:00.000    3 Dec 2019 00:08:55.077           535.077
01267    3 Dec 2019 00:00:00.000    3 Dec 2019 00:06:38.888           398.888
01268    3 Dec 2019 00:00:00.000    3 Dec 2019 00:04:22.687           262.687
01269    3 Dec 2019 00:00:00.000    3 Dec 2019 00:02:06.465           126.465
01307    3 Dec 2019 00:07:55.566    3 Dec 2019 00:10:00.000           124.434
01308    3 Dec 2019 00:05:42.444    3 Dec 2019 00:10:00.000           257.556
01309    3 Dec 2019 00:03:29.418    3 Dec 2019 00:10:00.000           390.582
01310    3 Dec 2019 00:01:16.487    3 Dec 2019 00:10:00.000           523.513
01311    3 Dec 2019 00:00:00.000    3 Dec 2019 00:10:00.000           600.000
01312    3 Dec 2019 00:00:00.000    3 Dec 2019 00:10:00.000           600.000
01313    3 Dec 2019 00:00:00.000    3 Dec 2019 00:10:00.000           600.000
01314    3 Dec 2019 00:00:00.000    3 Dec 2019 00:10:00.000           600.000
01315    3 Dec 2019 00:00:00.000    3 Dec 2019 00:09:00.203           540.203
01316    3 Dec 2019 00:00:00.000    3 Dec 2019 00:06:43.591           403.591
01317    3 Dec 2019 00:00:00.000    3 Dec 2019 00:04:26.947           266.947
01318    3 Dec 2019 00:00:00.000    3 Dec 2019 00:02:10.256           130.256
01356    3 Dec 2019 00:09:21.234    3 Dec 2019 00:10:00.000            38.766
01357    3 Dec 2019 00:07:10.155    3 Dec 2019 00:10:00.000           169.845
01358    3 Dec 2019 00:04:59.194    3 Dec 2019 00:10:00.000           300.806
01359    3 Dec 2019 00:02:48.362    3 Dec 2019 00:10:00.000           431.638
01360    3 Dec 2019 00:00:37.664    3 Dec 2019 00:10:00.000           562.336
01361    3 Dec 2019 00:00:00.000    3 Dec 2019 00:10:00.000           600.000
01362    3 Dec 2019 00:00:00.000    3 Dec 2019 00:10:00.000           600.000
01363    3 Dec 2019 00:00:00.000    3 Dec 2019 00:10:00.000           600.000
01364    3 Dec 2019 00:00:00.000    3 Dec 2019 00:08:50.574           530.574
01365    3 Dec 2019 00:00:00.000    3 Dec 2019 00:06:32.896           392.896
01366    3 Dec 2019 00:00:00.000    3 Dec 2019 00:04:15.131           255.131
01367    3 Dec 2019 00:00:00.000    3 Dec 2019 00:01:57.276           117.276
01406    3 Dec 2019 00:09:27.030    3 Dec 2019 00:10:00.000            32.970
01407    3 Dec 2019 00:07:19.234    3 Dec 2019 00:10:00.000           160.766
01408    3 Dec 2019 00:05:11.665    3 Dec 2019 00:10:00.000           288.335
01409    3 Dec 2019 00:03:04.329    3 Dec 2019 00:10:00.000           415.671
01410    3 Dec 2019 00:00:57.238    3 Dec 2019 00:10:00.000           542.762
01411    3 Dec 2019 00:00:00.000    3 Dec 2019 00:10:00.000           600.000
01412    3 Dec 2019 00:00:00.000    3 Dec 2019 00:10:00.000           600.000
01413    3 Dec 2019 00:00:00.000    3 Dec 2019 00:08:09.502           489.502
01414    3 Dec 2019 00:00:00.000    3 Dec 2019 00:05:49.130           349.130
01415    3 Dec 2019 00:00:00.000    3 Dec 2019 00:03:28.530           208.530
01416    3 Dec 2019 00:00:00.000    3 Dec 2019 00:01:07.669            67.669
01457    3 Dec 2019 00:09:17.991    3 Dec 2019 00:10:00.000            42.009
01458    3 Dec 2019 00:07:20.213    3 Dec 2019 00:10:00.000           159.787
01459    3 Dec 2019 00:05:23.728    3 Dec 2019 00:10:00.000           276.272
01460    3 Dec 2019 00:03:28.816    3 Dec 2019 00:10:00.000           391.184
01461    3 Dec 2019 00:01:35.918    3 Dec 2019 00:08:01.907           385.989
01462    3 Dec 2019 00:00:00.000    3 Dec 2019 00:05:27.104           327.104
01463    3 Dec 2019 00:00:00.000    3 Dec 2019 00:02:48.467           168.467
01464    3 Dec 2019 00:00:00.000    3 Dec 2019 00:00:03.286             3.286
02181    3 Dec 2019 00:03:36.821    3 Dec 2019 00:05:43.082           126.261
02182    3 Dec 2019 00:00:38.350    3 Dec 2019 00:04:19.139           220.789
02183    3 Dec 2019 00:00:00.000    3 Dec 2019 00:02:39.807           159.807
02184    3 Dec 2019 00:00:00.000    3 Dec 2019 00:00:54.075            54.075
02226    3 Dec 2019 00:09:01.971    3 Dec 2019 00:10:00.000            58.029
02227    3 Dec 2019 00:06:41.224    3 Dec 2019 00:10:00.000           198.776
02228    3 Dec 2019 00:04:20.815    3 Dec 2019 00:10:00.000           339.185
02229    3 Dec 2019 00:02:00.717    3 Dec 2019 00:10:00.000           479.283
02230    3 Dec 2019 00:00:00.000    3 Dec 2019 00:10:00.000           600.000
02231    3 Dec 2019 00:00:00.000    3 Dec 2019 00:10:00.000           600.000
02232    3 Dec 2019 00:00:00.000    3 Dec 2019 00:08:03.710           483.710
02233    3 Dec 2019 00:00:00.000    3 Dec 2019 00:05:58.759           358.759
02234    3 Dec 2019 00:00:00.000    3 Dec 2019 00:03:53.521           233.521
02235    3 Dec 2019 00:00:00.000    3 Dec 2019 00:01:48.003           108.003
02275    3 Dec 2019 00:07:59.848    3 Dec 2019 00:10:00.000           120.152
02276    3 Dec 2019 00:05:42.922    3 Dec 2019 00:10:00.000           257.078
02277    3 Dec 2019 00:03:26.095    3 Dec 2019 00:10:00.000           393.905
02278    3 Dec 2019 00:01:09.368    3 Dec 2019 00:10:00.000           530.632
02279    3 Dec 2019 00:00:00.000    3 Dec 2019 00:10:00.000           600.000
02280    3 Dec 2019 00:00:00.000    3 Dec 2019 00:10:00.000           600.000
02281    3 Dec 2019 00:00:00.000    3 Dec 2019 00:10:00.000           600.000
02282    3 Dec 2019 00:00:00.000    3 Dec 2019 00:08:39.663           519.663
02283    3 Dec 2019 00:00:00.000    3 Dec 2019 00:06:30.572           390.572
02284    3 Dec 2019 00:00:00.000    3 Dec 2019 00:04:21.349           261.349
02285    3 Dec 2019 00:00:00.000    3 Dec 2019 00:02:11.980           131.980
02286    3 Dec 2019 00:00:00.000    3 Dec 2019 00:00:02.480             2.480
02324    3 Dec 2019 00:07:45.706    3 Dec 2019 00:10:00.000           134.294
02325    3 Dec 2019 00:05:30.124    3 Dec 2019 00:10:00.000           269.876
02326    3 Dec 2019 00:03:14.582    3 Dec 2019 00:10:00.000           405.418
02327    3 Dec 2019 00:00:59.085    3 Dec 2019 00:10:00.000           540.915
02328    3 Dec 2019 00:00:00.000    3 Dec 2019 00:10:00.000           600.000
02329    3 Dec 2019 00:00:00.000    3 Dec 2019 00:10:00.000           600.000
02330    3 Dec 2019 00:00:00.000    3 Dec 2019 00:10:00.000           600.000
02331    3 Dec 2019 00:00:00.000    3 Dec 2019 00:10:00.000           600.000
02332    3 Dec 2019 00:00:00.000    3 Dec 2019 00:08:10.957           490.957
02333    3 Dec 2019 00:00:00.000    3 Dec 2019 00:05:59.505           359.505
02334    3 Dec 2019 00:00:00.000    3 Dec 2019 00:03:47.949           227.949
02335    3 Dec 2019 00:00:00.000    3 Dec 2019 00:01:36.299            96.299
02373    3 Dec 2019 00:07:48.480    3 Dec 2019 00:10:00.000           131.520
02374    3 Dec 2019 00:05:33.460    3 Dec 2019 00:10:00.000           266.540
02375    3 Dec 2019 00:03:18.447    3 Dec 2019 00:10:00.000           401.553
02376    3 Dec 2019 00:01:03.460    3 Dec 2019 00:10:00.000           536.540
02377    3 Dec 2019 00:00:00.000    3 Dec 2019 00:10:00.000           600.000
02378    3 Dec 2019 00:00:00.000    3 Dec 2019 00:10:00.000           600.000
02379    3 Dec 2019 00:00:00.000    3 Dec 2019 00:10:00.000           600.000
02380    3 Dec 2019 00:00:00.000    3 Dec 2019 00:10:00.000           600.000
02381    3 Dec 2019 00:00:00.000    3 Dec 2019 00:09:12.959           552.959
02382    3 Dec 2019 00:00:00.000    3 Dec 2019 00:06:59.850           419.850
02383    3 Dec 2019 00:00:00.000    3 Dec 2019 00:04:46.668           286.668
02384    3 Dec 2019 00:00:00.000    3 Dec 2019 00:02:33.412           153.412
02385    3 Dec 2019 00:00:00.000    3 Dec 2019 00:00:20.089            20.089
02422    3 Dec 2019 00:07:59.169    3 Dec 2019 00:10:00.000           120.831
02423    3 Dec 2019 00:05:44.285    3 Dec 2019 00:10:00.000           255.715
02424    3 Dec 2019 00:03:29.404    3 Dec 2019 00:10:00.000           390.596
02425    3 Dec 2019 00:01:14.526    3 Dec 2019 00:10:00.000           525.474
02426    3 Dec 2019 00:00:00.000    3 Dec 2019 00:10:00.000           600.000
02427    3 Dec 2019 00:00:00.000    3 Dec 2019 00:10:00.000           600.000
02428    3 Dec 2019 00:00:00.000    3 Dec 2019 00:10:00.000           600.000
02429    3 Dec 2019 00:00:00.000    3 Dec 2019 00:10:00.000           600.000
02430    3 Dec 2019 00:00:00.000    3 Dec 2019 00:09:47.074           587.074
02431    3 Dec 2019 00:00:00.000    3 Dec 2019 00:07:32.706           452.706
02432    3 Dec 2019 00:00:00.000    3 Dec 2019 00:05:18.277           318.277
02433    3 Dec 2019 00:00:00.000    3 Dec 2019 00:03:03.801           183.801
02434    3 Dec 2019 00:00:00.000    3 Dec 2019 00:00:49.274            49.274
02471    3 Dec 2019 00:08:08.885    3 Dec 2019 00:10:00.000           111.115
02472    3 Dec 2019 00:05:53.875    3 Dec 2019 00:10:00.000           246.125
02473    3 Dec 2019 00:03:38.858    3 Dec 2019 00:10:00.000           381.142
02474    3 Dec 2019 00:01:23.834    3 Dec 2019 00:10:00.000           516.166
02475    3 Dec 2019 00:00:00.000    3 Dec 2019 00:10:00.000           600.000
02476    3 Dec 2019 00:00:00.000    3 Dec 2019 00:10:00.000           600.000
02477    3 Dec 2019 00:00:00.000    3 Dec 2019 00:10:00.000           600.000
02478    3 Dec 2019 00:00:00.000    3 Dec 2019 00:10:00.000           600.000
02479    3 Dec 2019 00:00:00.000    3 Dec 2019 00:09:58.487           598.487
02480    3 Dec 2019 00:00:00.000    3 Dec 2019 00:07:43.189           463.189
02481    3 Dec 2019 00:00:00.000    3 Dec 2019 00:05:27.848           327.848
02482    3 Dec 2019 00:00:00.000    3 Dec 2019 00:03:12.478           192.478
02483    3 Dec 2019 00:00:00.000    3 Dec 2019 00:00:57.072            57.072
02520    3 Dec 2019 00:08:15.493    3 Dec 2019 00:10:00.000           104.507
02521    3 Dec 2019 00:06:00.192    3 Dec 2019 00:10:00.000           239.808
02522    3 Dec 2019 00:03:44.872    3 Dec 2019 00:10:00.000           375.128
02523    3 Dec 2019 00:01:29.538    3 Dec 2019 00:10:00.000           510.462
02524    3 Dec 2019 00:00:00.000    3 Dec 2019 00:10:00.000           600.000
02525    3 Dec 2019 00:00:00.000    3 Dec 2019 00:10:00.000           600.000
02526    3 Dec 2019 00:00:00.000    3 Dec 2019 00:10:00.000           600.000
02527    3 Dec 2019 00:00:00.000    3 Dec 2019 00:10:00.000           600.000
02528    3 Dec 2019 00:00:00.000    3 Dec 2019 00:09:56.162           596.162
02529    3 Dec 2019 00:00:00.000    3 Dec 2019 00:07:40.300           460.300
02530    3 Dec 2019 00:00:00.000    3 Dec 2019 00:05:24.416           324.416
02531    3 Dec 2019 00:00:00.000    3 Dec 2019 00:03:08.518           188.518
02532    3 Dec 2019 00:00:00.000    3 Dec 2019 00:00:52.606            52.606
02569    3 Dec 2019 00:08:14.210    3 Dec 2019 00:10:00.000           105.790
02570    3 Dec 2019 00:05:58.540    3 Dec 2019 00:10:00.000           241.460
02571    3 Dec 2019 00:03:42.851    3 Dec 2019 00:10:00.000           377.149
02572    3 Dec 2019 00:01:27.147    3 Dec 2019 00:10:00.000           512.853
02573    3 Dec 2019 00:00:00.000    3 Dec 2019 00:10:00.000           600.000
02574    3 Dec 2019 00:00:00.000    3 Dec 2019 00:10:00.000           600.000
02575    3 Dec 2019 00:00:00.000    3 Dec 2019 00:10:00.000           600.000
02576    3 Dec 2019 00:00:00.000    3 Dec 2019 00:10:00.000           600.000
02577    3 Dec 2019 00:00:00.000    3 Dec 2019 00:09:44.920           584.920
02578    3 Dec 2019 00:00:00.000    3 Dec 2019 00:07:28.864           448.864
02579    3 Dec 2019 00:00:00.000    3 Dec 2019 00:05:12.801           312.801
02580    3 Dec 2019 00:00:00.000    3 Dec 2019 00:02:56.742           176.742
02581    3 Dec 2019 00:00:00.000    3 Dec 2019 00:00:40.684            40.684
02618    3 Dec 2019 00:08:07.343    3 Dec 2019 00:10:00.000           112.657
02619    3 Dec 2019 00:05:51.371    3 Dec 2019 00:10:00.000           248.629
02620    3 Dec 2019 00:03:35.391    3 Dec 2019 00:10:00.000           384.609
02621    3 Dec 2019 00:01:19.407    3 Dec 2019 00:10:00.000           520.593
02622    3 Dec 2019 00:00:00.000    3 Dec 2019 00:10:00.000           600.000
02623    3 Dec 2019 00:00:00.000    3 Dec 2019 00:10:00.000           600.000
02624    3 Dec 2019 00:00:00.000    3 Dec 2019 00:10:00.000           600.000
02625    3 Dec 2019 00:00:00.000    3 Dec 2019 00:10:00.000           600.000
02626    3 Dec 2019 00:00:00.000    3 Dec 2019 00:09:34.265           574.265
02627    3 Dec 2019 00:00:00.000    3 Dec 2019 00:07:18.329           438.329
02628    3 Dec 2019 00:00:00.000    3 Dec 2019 00:05:02.399           302.399
02629    3 Dec 2019 00:00:00.000    3 Dec 2019 00:02:46.486           166.486
02630    3 Dec 2019 00:00:00.000    3 Dec 2019 00:00:30.592            30.592
02667    3 Dec 2019 00:07:55.138    3 Dec 2019 00:10:00.000           124.862
02668    3 Dec 2019 00:05:39.091    3 Dec 2019 00:10:00.000           260.909
02669    3 Dec 2019 00:03:23.043    3 Dec 2019 00:10:00.000           396.957
02670    3 Dec 2019 00:01:07.008    3 Dec 2019 00:10:00.000           532.992
02671    3 Dec 2019 00:00:00.000    3 Dec 2019 00:10:00.000           600.000
02672    3 Dec 2019 00:00:00.000    3 Dec 2019 00:10:00.000           600.000
02673    3 Dec 2019 00:00:00.000    3 Dec 2019 00:10:00.000           600.000
02674    3 Dec 2019 00:00:00.000    3 Dec 2019 00:10:00.000           600.000
02675    3 Dec 2019 00:00:00.000    3 Dec 2019 00:09:26.831           566.831
02676    3 Dec 2019 00:00:00.000    3 Dec 2019 00:07:11.212           431.212
02677    3 Dec 2019 00:00:00.000    3 Dec 2019 00:04:55.608           295.608
02678    3 Dec 2019 00:00:00.000    3 Dec 2019 00:02:40.027           160.027
02679    3 Dec 2019 00:00:00.000    3 Dec 2019 00:00:24.466            24.466
02716    3 Dec 2019 00:07:45.681    3 Dec 2019 00:10:00.000           134.319
02717    3 Dec 2019 00:05:29.884    3 Dec 2019 00:10:00.000           270.116
02718    3 Dec 2019 00:03:14.104    3 Dec 2019 00:10:00.000           405.896
02719    3 Dec 2019 00:00:58.355    3 Dec 2019 00:10:00.000           541.645
02720    3 Dec 2019 00:00:00.000    3 Dec 2019 00:10:00.000           600.000
02721    3 Dec 2019 00:00:00.000    3 Dec 2019 00:10:00.000           600.000
02722    3 Dec 2019 00:00:00.000    3 Dec 2019 00:10:00.000           600.000
02723    3 Dec 2019 00:00:00.000    3 Dec 2019 00:10:00.000           600.000
02724    3 Dec 2019 00:00:00.000    3 Dec 2019 00:09:27.585           567.585
02725    3 Dec 2019 00:00:00.000    3 Dec 2019 00:07:12.327           432.327
02726    3 Dec 2019 00:00:00.000    3 Dec 2019 00:04:57.091           297.091
02727    3 Dec 2019 00:00:00.000    3 Dec 2019 00:02:41.861           161.861
02728    3 Dec 2019 00:00:00.000    3 Dec 2019 00:00:26.657            26.657
02764    3 Dec 2019 00:09:58.665    3 Dec 2019 00:10:00.000             1.335
02765    3 Dec 2019 00:07:43.450    3 Dec 2019 00:10:00.000           136.550
02766    3 Dec 2019 00:05:28.273    3 Dec 2019 00:10:00.000           271.727
02767    3 Dec 2019 00:03:13.141    3 Dec 2019 00:10:00.000           406.859
02768    3 Dec 2019 00:00:58.054    3 Dec 2019 00:10:00.000           541.946
02769    3 Dec 2019 00:00:00.000    3 Dec 2019 00:10:00.000           600.000
02770    3 Dec 2019 00:00:00.000    3 Dec 2019 00:10:00.000           600.000
02771    3 Dec 2019 00:00:00.000    3 Dec 2019 00:10:00.000           600.000
02772    3 Dec 2019 00:00:00.000    3 Dec 2019 00:10:00.000           600.000
02773    3 Dec 2019 00:00:00.000    3 Dec 2019 00:09:33.714           573.714
02774    3 Dec 2019 00:00:00.000    3 Dec 2019 00:07:18.732           438.732
02775    3 Dec 2019 00:00:00.000    3 Dec 2019 00:05:03.759           303.759
02776    3 Dec 2019 00:00:00.000    3 Dec 2019 00:02:48.797           168.797
02777    3 Dec 2019 00:00:00.000    3 Dec 2019 00:00:33.847            33.847
02814    3 Dec 2019 00:07:58.053    3 Dec 2019 00:10:00.000           121.947
02815    3 Dec 2019 00:05:43.848    3 Dec 2019 00:10:00.000           256.152
02816    3 Dec 2019 00:03:29.702    3 Dec 2019 00:10:00.000           390.298
02817    3 Dec 2019 00:01:15.624    3 Dec 2019 00:10:00.000           524.376
02818    3 Dec 2019 00:00:00.000    3 Dec 2019 00:10:00.000           600.000
02819    3 Dec 2019 00:00:00.000    3 Dec 2019 00:10:00.000           600.000
02820    3 Dec 2019 00:00:00.000    3 Dec 2019 00:10:00.000           600.000
02821    3 Dec 2019 00:00:00.000    3 Dec 2019 00:10:00.000           600.000
02822    3 Dec 2019 00:00:00.000    3 Dec 2019 00:09:44.801           584.801
02823    3 Dec 2019 00:00:00.000    3 Dec 2019 00:07:29.903           449.903
02824    3 Dec 2019 00:00:00.000    3 Dec 2019 00:05:15.009           315.009
02825    3 Dec 2019 00:00:00.000    3 Dec 2019 00:03:00.109           180.109
02826    3 Dec 2019 00:00:00.000    3 Dec 2019 00:00:45.211            45.211
02863    3 Dec 2019 00:08:34.170    3 Dec 2019 00:10:00.000            85.830
02864    3 Dec 2019 00:06:21.292    3 Dec 2019 00:10:00.000           218.708
02865    3 Dec 2019 00:04:08.484    3 Dec 2019 00:10:00.000           351.516
02866    3 Dec 2019 00:01:55.761    3 Dec 2019 00:10:00.000           484.239
02867    3 Dec 2019 00:00:00.000    3 Dec 2019 00:10:00.000           600.000
02868    3 Dec 2019 00:00:00.000    3 Dec 2019 00:10:00.000           600.000
02869    3 Dec 2019 00:00:00.000    3 Dec 2019 00:10:00.000           600.000
02870    3 Dec 2019 00:00:00.000    3 Dec 2019 00:10:00.000           600.000
02871    3 Dec 2019 00:00:00.000    3 Dec 2019 00:09:54.022           594.022
02872    3 Dec 2019 00:00:00.000    3 Dec 2019 00:07:38.930           458.930
02873    3 Dec 2019 00:00:00.000    3 Dec 2019 00:05:23.815           323.815
02874    3 Dec 2019 00:00:00.000    3 Dec 2019 00:03:08.681           188.681
02875    3 Dec 2019 00:00:00.000    3 Dec 2019 00:00:53.529            53.529
02912    3 Dec 2019 00:09:40.534    3 Dec 2019 00:10:00.000            19.466
02913    3 Dec 2019 00:07:29.362    3 Dec 2019 00:10:00.000           150.638
02914    3 Dec 2019 00:05:18.286    3 Dec 2019 00:10:00.000           281.714
02915    3 Dec 2019 00:03:07.314    3 Dec 2019 00:10:00.000           412.686
02916    3 Dec 2019 00:00:56.450    3 Dec 2019 00:10:00.000           543.550
02917    3 Dec 2019 00:00:00.000    3 Dec 2019 00:10:00.000           600.000
02918    3 Dec 2019 00:00:00.000    3 Dec 2019 00:10:00.000           600.000
02919    3 Dec 2019 00:00:00.000    3 Dec 2019 00:10:00.000           600.000
02920    3 Dec 2019 00:00:00.000    3 Dec 2019 00:09:56.661           596.661
02921    3 Dec 2019 00:00:00.000    3 Dec 2019 00:07:40.926           460.926
02922    3 Dec 2019 00:00:00.000    3 Dec 2019 00:05:25.136           325.136
02923    3 Dec 2019 00:00:00.000    3 Dec 2019 00:03:09.296           189.296
02924    3 Dec 2019 00:00:00.000    3 Dec 2019 00:00:53.399            53.399
02962    3 Dec 2019 00:09:17.123    3 Dec 2019 00:10:00.000            42.877
02963    3 Dec 2019 00:07:08.502    3 Dec 2019 00:10:00.000           171.498
02964    3 Dec 2019 00:05:00.027    3 Dec 2019 00:10:00.000           299.973
02965    3 Dec 2019 00:02:51.716    3 Dec 2019 00:10:00.000           428.284
02966    3 Dec 2019 00:00:43.575    3 Dec 2019 00:10:00.000           556.425
02967    3 Dec 2019 00:00:00.000    3 Dec 2019 00:10:00.000           600.000
02968    3 Dec 2019 00:00:00.000    3 Dec 2019 00:10:00.000           600.000
02969    3 Dec 2019 00:00:00.000    3 Dec 2019 00:09:37.912           577.912
02970    3 Dec 2019 00:00:00.000    3 Dec 2019 00:07:20.598           440.598
02971    3 Dec 2019 00:00:00.000    3 Dec 2019 00:05:03.164           303.164
02972    3 Dec 2019 00:00:00.000    3 Dec 2019 00:02:45.596           165.596
02973    3 Dec 2019 00:00:00.000    3 Dec 2019 00:00:27.896            27.896
03013    3 Dec 2019 00:07:58.532    3 Dec 2019 00:10:00.000           121.468
03014    3 Dec 2019 00:05:54.935    3 Dec 2019 00:10:00.000           245.065
03015    3 Dec 2019 00:03:51.724    3 Dec 2019 00:10:00.000           368.276
03016    3 Dec 2019 00:01:48.938    3 Dec 2019 00:10:00.000           491.062
03017    3 Dec 2019 00:00:00.000    3 Dec 2019 00:10:00.000           600.000
03018    3 Dec 2019 00:00:00.000    3 Dec 2019 00:08:28.181           508.181
03019    3 Dec 2019 00:00:00.000    3 Dec 2019 00:06:06.101           366.101
03020    3 Dec 2019 00:00:00.000    3 Dec 2019 00:03:43.493           223.493
03021    3 Dec 2019 00:00:00.000    3 Dec 2019 00:01:20.293            80.293
03219    3 Dec 2019 00:09:54.795    3 Dec 2019 00:10:00.000             5.205
03220    3 Dec 2019 00:07:42.216    3 Dec 2019 00:10:00.000           137.784
03221    3 Dec 2019 00:05:29.653    3 Dec 2019 00:10:00.000           270.347
03222    3 Dec 2019 00:03:17.118    3 Dec 2019 00:10:00.000           402.882
03223    3 Dec 2019 00:01:04.611    3 Dec 2019 00:10:00.000           535.389
03224    3 Dec 2019 00:00:00.000    3 Dec 2019 00:10:00.000           600.000
03225    3 Dec 2019 00:00:00.000    3 Dec 2019 00:10:00.000           600.000
03226    3 Dec 2019 00:00:00.000    3 Dec 2019 00:10:00.000           600.000
03227    3 Dec 2019 00:00:00.000    3 Dec 2019 00:10:00.000           600.000
03228    3 Dec 2019 00:00:00.000    3 Dec 2019 00:09:32.185           572.185
03229    3 Dec 2019 00:00:00.000    3 Dec 2019 00:07:21.134           441.134
03230    3 Dec 2019 00:00:00.000    3 Dec 2019 00:05:09.968           309.968
03231    3 Dec 2019 00:00:00.000    3 Dec 2019 00:02:58.698           178.698
03232    3 Dec 2019 00:00:00.000    3 Dec 2019 00:00:47.321            47.321
03268    3 Dec 2019 00:08:25.540    3 Dec 2019 00:10:00.000            94.460
03269    3 Dec 2019 00:06:12.938    3 Dec 2019 00:10:00.000           227.062
03270    3 Dec 2019 00:04:00.299    3 Dec 2019 00:10:00.000           359.701
03271    3 Dec 2019 00:01:47.636    3 Dec 2019 00:10:00.000           492.364
03272    3 Dec 2019 00:00:00.000    3 Dec 2019 00:10:00.000           600.000
03273    3 Dec 2019 00:00:00.000    3 Dec 2019 00:10:00.000           600.000
03274    3 Dec 2019 00:00:00.000    3 Dec 2019 00:10:00.000           600.000
03275    3 Dec 2019 00:00:00.000    3 Dec 2019 00:08:36.814           516.814
03276    3 Dec 2019 00:00:00.000    3 Dec 2019 00:06:17.806           377.806
03277    3 Dec 2019 00:00:00.000    3 Dec 2019 00:03:58.725           238.725
03278    3 Dec 2019 00:00:00.000    3 Dec 2019 00:01:39.569            99.569
03314    3 Dec 2019 00:09:18.797    3 Dec 2019 00:10:00.000            41.203
03315    3 Dec 2019 00:06:59.259    3 Dec 2019 00:10:00.000           180.741
03316    3 Dec 2019 00:04:39.660    3 Dec 2019 00:10:00.000           320.340
03317    3 Dec 2019 00:02:19.997    3 Dec 2019 00:10:00.000           460.003
03318    3 Dec 2019 00:00:00.283    3 Dec 2019 00:10:00.000           599.717
03319    3 Dec 2019 00:00:00.000    3 Dec 2019 00:10:00.000           600.000
03320    3 Dec 2019 00:00:00.000    3 Dec 2019 00:07:47.460           467.460
03321    3 Dec 2019 00:00:00.000    3 Dec 2019 00:05:32.432           332.432
03322    3 Dec 2019 00:00:00.000    3 Dec 2019 00:03:17.504           197.504
03323    3 Dec 2019 00:00:00.000    3 Dec 2019 00:01:02.676            62.676
03359    3 Dec 2019 00:08:37.602    3 Dec 2019 00:10:00.000            82.398
03360    3 Dec 2019 00:06:22.374    3 Dec 2019 00:10:00.000           217.626
03361    3 Dec 2019 00:04:07.243    3 Dec 2019 00:10:00.000           352.757
03362    3 Dec 2019 00:01:52.225    3 Dec 2019 00:10:00.000           487.775
03363    3 Dec 2019 00:00:00.000    3 Dec 2019 00:10:00.000           600.000
03364    3 Dec 2019 00:00:00.000    3 Dec 2019 00:10:00.000           600.000
03365    3 Dec 2019 00:00:00.000    3 Dec 2019 00:10:00.000           600.000
03366    3 Dec 2019 00:00:00.000    3 Dec 2019 00:10:00.000           600.000
03367    3 Dec 2019 00:00:00.000    3 Dec 2019 00:09:51.211           591.211
03368    3 Dec 2019 00:00:00.000    3 Dec 2019 00:07:39.088           459.088
03369    3 Dec 2019 00:00:00.000    3 Dec 2019 00:05:26.961           326.961
03370    3 Dec 2019 00:00:00.000    3 Dec 2019 00:03:14.835           194.835
03371    3 Dec 2019 00:00:00.000    3 Dec 2019 00:01:02.710            62.710
03408    3 Dec 2019 00:09:10.799    3 Dec 2019 00:10:00.000            49.201
03409    3 Dec 2019 00:07:05.471    3 Dec 2019 00:10:00.000           174.529
03410    3 Dec 2019 00:05:00.321    3 Dec 2019 00:10:00.000           299.679
03411    3 Dec 2019 00:02:55.365    3 Dec 2019 00:10:00.000           424.635
03412    3 Dec 2019 00:00:50.613    3 Dec 2019 00:10:00.000           549.387
03413    3 Dec 2019 00:00:00.000    3 Dec 2019 00:10:00.000           600.000
03414    3 Dec 2019 00:00:00.000    3 Dec 2019 00:10:00.000           600.000
03415    3 Dec 2019 00:00:00.000    3 Dec 2019 00:09:47.102           587.102
03416    3 Dec 2019 00:00:00.000    3 Dec 2019 00:07:32.162           452.162
03417    3 Dec 2019 00:00:00.000    3 Dec 2019 00:05:17.095           317.095
03418    3 Dec 2019 00:00:00.000    3 Dec 2019 00:03:01.899           181.899
03419    3 Dec 2019 00:00:00.000    3 Dec 2019 00:00:46.562            46.562
03626    3 Dec 2019 00:08:35.871    3 Dec 2019 00:10:00.000            84.129
03627    3 Dec 2019 00:07:02.302    3 Dec 2019 00:10:00.000           177.698
03628    3 Dec 2019 00:05:28.769    3 Dec 2019 00:10:00.000           271.231
03629    3 Dec 2019 00:03:55.282    3 Dec 2019 00:10:00.000           364.718
03630    3 Dec 2019 00:02:21.832    3 Dec 2019 00:10:00.000           458.168
03631    3 Dec 2019 00:00:48.428    3 Dec 2019 00:10:00.000           551.572
03632    3 Dec 2019 00:00:00.000    3 Dec 2019 00:10:00.000           600.000
03633    3 Dec 2019 00:00:00.000    3 Dec 2019 00:10:00.000           600.000
03634    3 Dec 2019 00:00:00.000    3 Dec 2019 00:10:00.000           600.000
03635    3 Dec 2019 00:00:00.000    3 Dec 2019 00:10:00.000           600.000
03636    3 Dec 2019 00:00:00.000    3 Dec 2019 00:10:00.000           600.000
03637    3 Dec 2019 00:00:00.000    3 Dec 2019 00:10:00.000           600.000
03638    3 Dec 2019 00:00:00.000    3 Dec 2019 00:08:55.719           535.719
03639    3 Dec 2019 00:00:00.000    3 Dec 2019 00:07:27.876           447.876
03640    3 Dec 2019 00:00:00.000    3 Dec 2019 00:05:59.954           359.954
03641    3 Dec 2019 00:00:00.000    3 Dec 2019 00:04:31.958           271.958
03642    3 Dec 2019 00:00:00.000    3 Dec 2019 00:03:03.885           183.885
03643    3 Dec 2019 00:00:00.000    3 Dec 2019 00:01:35.742            95.742
03644    3 Dec 2019 00:00:00.000    3 Dec 2019 00:00:07.520             7.520
03696    3 Dec 2019 00:09:02.303    3 Dec 2019 00:10:00.000            57.697
03697    3 Dec 2019 00:07:29.659    3 Dec 2019 00:10:00.000           150.341
03698    3 Dec 2019 00:05:56.994    3 Dec 2019 00:10:00.000           243.006
03699    3 Dec 2019 00:04:24.312    3 Dec 2019 00:10:00.000           335.688
03700    3 Dec 2019 00:02:51.620    3 Dec 2019 00:10:00.000           428.380
03701    3 Dec 2019 00:01:18.913    3 Dec 2019 00:10:00.000           521.087
03702    3 Dec 2019 00:00:00.000    3 Dec 2019 00:10:00.000           600.000
03703    3 Dec 2019 00:00:00.000    3 Dec 2019 00:10:00.000           600.000
03704    3 Dec 2019 00:00:00.000    3 Dec 2019 00:10:00.000           600.000
03705    3 Dec 2019 00:00:00.000    3 Dec 2019 00:10:00.000           600.000
03706    3 Dec 2019 00:00:00.000    3 Dec 2019 00:10:00.000           600.000
03707    3 Dec 2019 00:00:00.000    3 Dec 2019 00:10:00.000           600.000
03708    3 Dec 2019 00:00:00.000    3 Dec 2019 00:10:00.000           600.000
03709    3 Dec 2019 00:00:00.000    3 Dec 2019 00:08:54.481           534.481
03710    3 Dec 2019 00:00:00.000    3 Dec 2019 00:07:19.024           439.024
03711    3 Dec 2019 00:00:00.000    3 Dec 2019 00:05:43.538           343.538
03712    3 Dec 2019 00:00:00.000    3 Dec 2019 00:04:08.024           248.024
03713    3 Dec 2019 00:00:00.000    3 Dec 2019 00:02:32.475           152.475
03714    3 Dec 2019 00:00:00.000    3 Dec 2019 00:00:56.900            56.900
03763    3 Dec 2019 00:08:42.979    3 Dec 2019 00:10:00.000            77.021
03764    3 Dec 2019 00:07:06.883    3 Dec 2019 00:10:00.000           173.117
03765    3 Dec 2019 00:05:30.794    3 Dec 2019 00:10:00.000           269.206
03766    3 Dec 2019 00:03:54.720    3 Dec 2019 00:10:00.000           365.280
03767    3 Dec 2019 00:02:18.657    3 Dec 2019 00:10:00.000           461.343
03768    3 Dec 2019 00:00:42.614    3 Dec 2019 00:10:00.000           557.386
03769    3 Dec 2019 00:00:00.000    3 Dec 2019 00:10:00.000           600.000
03770    3 Dec 2019 00:00:00.000    3 Dec 2019 00:10:00.000           600.000
03771    3 Dec 2019 00:00:00.000    3 Dec 2019 00:10:00.000           600.000
03772    3 Dec 2019 00:00:00.000    3 Dec 2019 00:10:00.000           600.000
03773    3 Dec 2019 00:00:00.000    3 Dec 2019 00:10:00.000           600.000
03774    3 Dec 2019 00:00:00.000    3 Dec 2019 00:10:00.000           600.000
03775    3 Dec 2019 00:00:00.000    3 Dec 2019 00:08:39.144           519.144
03776    3 Dec 2019 00:00:00.000    3 Dec 2019 00:07:05.850           425.850
03777    3 Dec 2019 00:00:00.000    3 Dec 2019 00:05:32.574           332.574
03778    3 Dec 2019 00:00:00.000    3 Dec 2019 00:03:59.332           239.332
03779    3 Dec 2019 00:00:00.000    3 Dec 2019 00:02:26.110           146.110
03780    3 Dec 2019 00:00:00.000    3 Dec 2019 00:00:52.917            52.917
03831    3 Dec 2019 00:09:37.225    3 Dec 2019 00:10:00.000            22.775
03832    3 Dec 2019 00:08:07.226    3 Dec 2019 00:10:00.000           112.774
03833    3 Dec 2019 00:06:37.277    3 Dec 2019 00:10:00.000           202.723
03834    3 Dec 2019 00:05:07.382    3 Dec 2019 00:10:00.000           292.618
03835    3 Dec 2019 00:03:37.550    3 Dec 2019 00:10:00.000           382.450
03836    3 Dec 2019 00:02:07.781    3 Dec 2019 00:10:00.000           472.219
03837    3 Dec 2019 00:00:38.067    3 Dec 2019 00:10:00.000           561.933
03838    3 Dec 2019 00:00:00.000    3 Dec 2019 00:10:00.000           600.000
03839    3 Dec 2019 00:00:00.000    3 Dec 2019 00:10:00.000           600.000
03840    3 Dec 2019 00:00:00.000    3 Dec 2019 00:10:00.000           600.000
03841    3 Dec 2019 00:00:00.000    3 Dec 2019 00:10:00.000           600.000
03842    3 Dec 2019 00:00:00.000    3 Dec 2019 00:10:00.000           600.000
03843    3 Dec 2019 00:00:00.000    3 Dec 2019 00:10:00.000           600.000
03844    3 Dec 2019 00:00:00.000    3 Dec 2019 00:10:00.000           600.000
03845    3 Dec 2019 00:00:00.000    3 Dec 2019 00:09:09.591           549.591
03846    3 Dec 2019 00:00:00.000    3 Dec 2019 00:07:36.897           456.897
03847    3 Dec 2019 00:00:00.000    3 Dec 2019 00:06:04.188           364.188
03848    3 Dec 2019 00:00:00.000    3 Dec 2019 00:04:31.459           271.459
03849    3 Dec 2019 00:00:00.000    3 Dec 2019 00:02:58.706           178.706
03850    3 Dec 2019 00:00:00.000    3 Dec 2019 00:01:25.940            85.940
04065    3 Dec 2019 00:09:23.923    3 Dec 2019 00:10:00.000            36.077
04066    3 Dec 2019 00:07:54.717    3 Dec 2019 00:10:00.000           125.283
04067    3 Dec 2019 00:06:25.539    3 Dec 2019 00:10:00.000           214.461
04068    3 Dec 2019 00:04:56.378    3 Dec 2019 00:10:00.000           303.622
04069    3 Dec 2019 00:03:27.230    3 Dec 2019 00:10:00.000           392.770
04070    3 Dec 2019 00:01:58.106    3 Dec 2019 00:09:21.675           443.569
04071    3 Dec 2019 00:00:29.003    3 Dec 2019 00:07:41.361           432.358
04072    3 Dec 2019 00:00:00.000    3 Dec 2019 00:06:00.967           360.967
04073    3 Dec 2019 00:00:00.000    3 Dec 2019 00:04:20.494           260.494
04074    3 Dec 2019 00:00:00.000    3 Dec 2019 00:02:39.941           159.941
04075    3 Dec 2019 00:00:00.000    3 Dec 2019 00:00:59.312            59.312
04126    3 Dec 2019 00:09:19.613    3 Dec 2019 00:10:00.000            40.387
04127    3 Dec 2019 00:07:45.800    3 Dec 2019 00:10:00.000           134.200
04128    3 Dec 2019 00:06:12.043    3 Dec 2019 00:10:00.000           227.957
04129    3 Dec 2019 00:04:38.350    3 Dec 2019 00:10:00.000           321.650
04130    3 Dec 2019 00:03:04.722    3 Dec 2019 00:10:00.000           415.278
04131    3 Dec 2019 00:01:31.158    3 Dec 2019 00:10:00.000           508.842
04132    3 Dec 2019 00:00:00.000    3 Dec 2019 00:10:00.000           600.000
04133    3 Dec 2019 00:00:00.000    3 Dec 2019 00:10:00.000           600.000
04134    3 Dec 2019 00:00:00.000    3 Dec 2019 00:10:00.000           600.000
04135    3 Dec 2019 00:00:00.000    3 Dec 2019 00:10:00.000           600.000
04136    3 Dec 2019 00:00:00.000    3 Dec 2019 00:10:00.000           600.000
04137    3 Dec 2019 00:00:00.000    3 Dec 2019 00:10:00.000           600.000
04138    3 Dec 2019 00:00:00.000    3 Dec 2019 00:10:00.000           600.000
04139    3 Dec 2019 00:00:00.000    3 Dec 2019 00:08:36.143           516.143
04140    3 Dec 2019 00:00:00.000    3 Dec 2019 00:07:06.471           426.471
04141    3 Dec 2019 00:00:00.000    3 Dec 2019 00:05:36.799           336.799
04142    3 Dec 2019 00:00:00.000    3 Dec 2019 00:04:07.121           247.121
04143    3 Dec 2019 00:00:00.000    3 Dec 2019 00:02:37.438           157.438
04144    3 Dec 2019 00:00:00.000    3 Dec 2019 00:01:07.755            67.755
04203    3 Dec 2019 00:09:43.862    3 Dec 2019 00:10:00.000            16.138
04204    3 Dec 2019 00:08:25.740    3 Dec 2019 00:10:00.000            94.260
04205    3 Dec 2019 00:07:07.989    3 Dec 2019 00:10:00.000           172.011
04206    3 Dec 2019 00:05:50.640    3 Dec 2019 00:10:00.000           249.360
04207    3 Dec 2019 00:04:33.734    3 Dec 2019 00:10:00.000           326.266
04208    3 Dec 2019 00:03:17.324    3 Dec 2019 00:10:00.000           402.676
04209    3 Dec 2019 00:02:01.468    3 Dec 2019 00:09:48.047           466.578
04210    3 Dec 2019 00:00:46.244    3 Dec 2019 00:08:10.027           443.783
04211    3 Dec 2019 00:00:00.000    3 Dec 2019 00:06:31.329           391.329
04212    3 Dec 2019 00:00:00.000    3 Dec 2019 00:04:51.852           291.852
04213    3 Dec 2019 00:00:00.000    3 Dec 2019 00:03:11.398           191.398
04214    3 Dec 2019 00:00:00.000    3 Dec 2019 00:01:29.736            89.736
04367    3 Dec 2019 00:08:52.234    3 Dec 2019 00:10:00.000            67.766
04368    3 Dec 2019 00:07:21.987    3 Dec 2019 00:10:00.000           158.013
04369    3 Dec 2019 00:05:51.743    3 Dec 2019 00:10:00.000           248.257
04370    3 Dec 2019 00:04:21.511    3 Dec 2019 00:10:00.000           338.489
04371    3 Dec 2019 00:02:51.293    3 Dec 2019 00:10:00.000           428.707
04372    3 Dec 2019 00:01:21.089    3 Dec 2019 00:10:00.000           518.911
04373    3 Dec 2019 00:00:00.000    3 Dec 2019 00:10:00.000           600.000
04374    3 Dec 2019 00:00:00.000    3 Dec 2019 00:10:00.000           600.000
04375    3 Dec 2019 00:00:00.000    3 Dec 2019 00:10:00.000           600.000
04376    3 Dec 2019 00:00:00.000    3 Dec 2019 00:10:00.000           600.000
04377    3 Dec 2019 00:00:00.000    3 Dec 2019 00:10:00.000           600.000
04378    3 Dec 2019 00:00:00.000    3 Dec 2019 00:10:00.000           600.000
04379    3 Dec 2019 00:00:00.000    3 Dec 2019 00:10:00.000           600.000
04380    3 Dec 2019 00:00:00.000    3 Dec 2019 00:10:00.000           600.000
04381    3 Dec 2019 00:00:00.000    3 Dec 2019 00:08:38.514           518.514
04382    3 Dec 2019 00:00:00.000    3 Dec 2019 00:07:09.806           429.806
04383    3 Dec 2019 00:00:00.000    3 Dec 2019 00:05:41.043           341.043
04384    3 Dec 2019 00:00:00.000    3 Dec 2019 00:04:12.234           252.234
04385    3 Dec 2019 00:00:00.000    3 Dec 2019 00:02:43.358           163.358
04386    3 Dec 2019 00:00:00.000    3 Dec 2019 00:01:14.439            74.439
